location_id,location_name,latitude,longitude
0,Warehouse (Andheri),19.1197,72.8468
1,Bandra,19.0600,72.8300
2,Dadar,19.0186,72.8436
3,Colaba,18.9100,72.8090
4,Powai,19.1200,72.9050
5,Goregaon,19.1738,72.8600
6,Mulund,19.1726,72.9560
7,Chembur,19.0500,72.9000
